[
    {
        "id": 2215,
        "locationId": " Polytechnique",
        "name": "Bloc Administratif",
        "status": "OPEN",
        "address": {
            "street": "Route de Melen",
            "city": "Yaounde",
            "countryId": 237,
            "country": "Cameroun"
        },
        "gps": {
            "latitude": 3.8623959929656326, 
            "longitude": 11.501142236204016
        },
        "dateOpened": "2019-12-20"
    },
    {
        "id": 2216,
        "locationId": " Polytechnique",
        "name": "Departement de Genie Mecanique",
        "status": "CLOSED",
        "address": {
            "street": "Route de Melen",
            "city": "Yaounde",
            "countryId": 237,
            "country": "Cameroun"
        },
        "gps": {
            "latitude": 3.861814, 
            "longitude": 11.501114
        },
        "dateOpened": "2019-12-20"
    },
    {
        "id": 2217,
        "locationId": " Polytechnique",
        "name": "Departement de MSP",
        "status": "OPEN",
        "address": {
            "street": "Route de Melen",
            "city": "Yaounde",
            "countryId": 237,
            "country": "Cameroun"
        },
        "gps": {
            "latitude": 3.862133466203091, 
            "longitude": 11.500629641897817
        },
        "dateOpened": "2019-12-20"
    },
    {
        "id": 2218,
        "locationId": " Polytechnique",
        "name": "Amphi 100",
        "status": "OPEN",
        "address": {
            "street": "Route de Melen",
            "city": "Yaounde",
            "countryId": 237,
            "country": "Cameroun"
        },
        "gps": {
            "latitude": 3.8621352208442796,  
            "longitude": 11.50026210297649
        },
        "dateOpened": "2019-12-20"
    },
    {
        "id": 2219,
        "locationId": " Polytechnique",
        "name": "Le Pentagone",
        "status": "CLOSED",
        "address": {
            "street": "Route de Melen",
            "city": "Yaounde",
            "countryId": 237,
            "country": "Cameroun"
        },
        "gps": {
            "latitude": 3.8627616006478656, 
            "longitude": 11.500411580544423
        },
        "dateOpened": "2019-12-20"
    },
    {
        "id": 2220,
        "locationId": " Polytechnique",
        "name": "Departement de GET",
        "status": "OPEN",
        "address": {
            "street": "Route de Melen",
            "city": "Yaounde",
            "countryId": 237,
            "country": "Cameroun"
        },
        "gps": {
            "latitude": 3.8623614289592587, 
            "longitude": 11.500239126579146
        },
        "dateOpened": "2019-12-20"
    },
    {
        "id": 2221,
        "locationId": " Polytechnique",
        "name": "Bloc Pedagogique N1",
        "status": "OPEN",
        "address": {
            "street": "Route de Melen",
            "city": "Yaounde",
            "countryId": 237,
            "country": "Cameroun"
        },
        "gps": {
            "latitude": 3.862880259282741, 
            "longitude": 11.49979251806077
        },
        "dateOpened": "2019-12-20"
    },
    {
        "id": 2222,
        "locationId": " Polytechnique",
        "name": "Genie Informatique",
        "status": "CLOSED",
        "address": {
            "street": "Route de Melen",
            "city": "Yaounde",
            "countryId": 237,
            "country": "Cameroun"
        },
        "gps": {
            "latitude": 3.8624321372375783, 
            "longitude": 11.499764137563625
        },
        "dateOpened": "2019-12-20"
    }
]